,City,Country,Lat,Lng,Max Temp,Humidity,Cloudiness,Wind Speed,Current Description
0,Geraldton,AU,-28.7667,114.6,93.2,24,3,19.57,clear sky
1,Hasaki,JP,35.7333,140.8333,41.0,87,75,6.91,broken clouds
2,Dunedin,NZ,-45.8742,170.5036,68.52,66,60,8.23,broken clouds
3,Bathsheba,BB,13.2167,-59.5167,78.8,78,75,17.27,broken clouds
4,Albany,US,42.6001,-73.9662,36.0,73,100,0.85,overcast clouds
5,Lebu,CL,-37.6167,-73.65,55.11,83,0,2.77,clear sky
6,Jablah,SY,35.3614,35.9256,64.4,48,40,13.8,scattered clouds
7,Macia,MZ,-25.0269,33.0989,73.65,96,2,1.92,light rain
8,Rikitea,PF,-23.1203,-134.9692,78.1,73,66,10.42,broken clouds
9,Kruisfontein,ZA,-34.0033,24.7314,71.01,90,3,1.99,clear sky
10,Saint-Augustin,CA,51.226,-58.6502,26.49,96,100,3.69,overcast clouds
11,Ancud,CL,-41.8697,-73.8203,51.8,93,20,12.66,light rain
12,Jamestown,US,42.097,-79.2353,34.0,86,1,6.91,clear sky
13,Punta Arenas,CL,-53.15,-70.9167,55.4,71,20,11.5,few clouds
14,Hilo,US,19.7297,-155.09,82.4,57,20,10.36,few clouds
15,Comodoro Rivadavia,AR,-45.8667,-67.5,73.4,38,0,6.91,clear sky
16,Hermanus,ZA,-34.4187,19.2345,66.99,76,0,17.0,clear sky
17,Nsanje,MW,-16.92,35.262,74.12,95,100,1.57,overcast clouds
18,Novomykolayivka,UA,47.9781,35.9102,23.4,97,100,1.25,overcast clouds
19,Port Alfred,ZA,-33.5906,26.891,74.84,87,100,18.3,overcast clouds
20,Bethel,US,41.3712,-73.414,36.0,80,90,3.51,overcast clouds
21,Vega de Alatorre,MX,20.0333,-96.6333,68.81,84,100,9.71,overcast clouds
22,Itarema,BR,-2.9248,-39.9167,78.49,79,68,11.86,broken clouds
23,Norman Wells,CA,65.282,-126.8329,-9.4,84,20,4.61,few clouds
24,Mossamedes,AO,-15.1961,12.1522,71.58,72,87,2.82,overcast clouds
25,Port Blair,IN,11.6667,92.75,77.92,77,99,10.42,overcast clouds
26,Cape Town,ZA,-33.9258,18.4232,69.01,77,75,16.11,broken clouds
27,Tecalitlán,MX,19.4667,-103.3,73.4,53,90,2.91,overcast clouds
28,Chunskiy,RU,56.0815,99.6342,1.72,91,100,15.75,light snow
29,Ouésso,CG,1.6136,16.0517,72.41,81,3,2.55,clear sky
30,Paamiut,GL,61.994,-49.6678,22.71,88,93,10.76,overcast clouds
31,Genhe,CN,50.7833,121.5167,-23.85,84,1,2.04,clear sky
32,Sonkovo,RU,57.7782,37.1571,-6.23,92,100,7.52,light snow
33,Port Hardy,CA,50.6996,-127.4199,46.4,66,75,37.98,light rain
34,Busselton,AU,-33.65,115.3333,66.99,64,0,5.01,clear sky
35,Qaqortoq,GL,60.7167,-46.0333,19.62,92,100,5.95,overcast clouds
36,Nikolskoye,RU,59.7035,30.7861,8.01,85,75,5.7,light snow
37,Aljezur,PT,37.3191,-8.8033,51.73,86,85,11.48,overcast clouds
38,Saskylakh,RU,71.9167,114.0833,-46.73,77,41,1.39,scattered clouds
39,Touros,BR,-5.1989,-35.4608,78.8,78,20,11.5,few clouds
40,Morón,AR,-34.6534,-58.6198,78.01,72,0,5.99,clear sky
41,Camaná,PE,-16.6228,-72.7111,70.45,76,100,5.55,overcast clouds
42,Ribeira Grande,PT,38.5167,-28.7,63.09,85,100,30.47,overcast clouds
43,Hagerstown,US,39.6418,-77.72,42.8,56,1,6.91,clear sky
44,Dikson,RU,73.5069,80.5464,-29.22,79,17,5.77,few clouds
45,Whitehorse,CA,60.7161,-135.0538,23.0,80,90,11.5,light snow
46,Tuatapere,NZ,-46.1333,167.6833,73.0,64,16,3.0,few clouds
47,Saldanha,ZA,-33.0117,17.9442,64.4,94,100,9.22,overcast clouds
48,Verkhnyaya Balkariya,RU,43.1279,43.4573,37.4,100,90,4.47,fog
49,Evinayong,GQ,1.4368,10.5512,66.51,99,89,2.48,overcast clouds
50,Tabou,CI,4.423,-7.3528,78.42,85,0,6.96,clear sky
51,Middelburg,ZA,-25.7751,29.4648,62.29,85,89,3.09,overcast clouds
52,Sibsāgar,IN,26.9833,94.6333,55.4,100,90,1.5,fog
53,Zhongxing,CN,33.7039,118.6792,44.22,70,32,11.59,scattered clouds
54,Saint Paul Harbor,US,57.79,-152.4072,39.2,93,90,19.57,light rain
55,Katsuura,JP,35.1333,140.3,48.99,65,75,11.5,light rain
56,Beipiao,CN,41.7919,120.7792,5.95,85,100,22.1,overcast clouds
57,Chichimila,MX,20.6167,-88.2167,68.63,92,100,3.31,overcast clouds
58,Qaanaaq,GL,77.484,-69.3632,8.08,76,92,4.34,overcast clouds
59,Tuktoyaktuk,CA,69.4541,-133.0374,-7.6,77,90,6.91,overcast clouds
60,Bredasdorp,ZA,-34.5322,20.0403,68.0,94,32,3.44,scattered clouds
61,Verkh-Usugli,RU,52.7,115.1667,-19.21,84,0,2.73,clear sky
62,Manicoré,BR,-5.8092,-61.3003,74.8,98,100,1.03,moderate rain
63,Marzuq,YE,14.4,46.4667,52.59,50,0,0.94,clear sky
64,Cuamba,MZ,-14.8031,36.5372,70.3,95,99,1.21,light rain
65,Atar,MR,20.5169,-13.0499,61.27,28,100,13.58,overcast clouds
66,Hobart,AU,-42.8794,147.3294,55.99,76,75,8.05,broken clouds
67,Samarai,PG,-10.6167,150.6667,82.31,80,100,12.59,overcast clouds
68,Vaini,TO,-21.2,-175.2,84.2,79,20,11.5,few clouds
69,New Norfolk,AU,-42.7826,147.0587,55.99,81,100,1.01,light rain
70,Severo-Kuril'sk,RU,50.6789,156.125,25.48,93,100,20.22,light snow
71,Nizwá,OM,22.9333,57.5333,51.24,66,0,1.74,clear sky
72,Fairbanks,US,64.8378,-147.7164,10.99,84,40,4.61,scattered clouds
73,Springbok,ZA,-29.6643,17.8865,58.71,79,42,4.83,scattered clouds
74,Faanui,PF,-16.4833,-151.75,81.77,74,1,15.12,clear sky
75,Butaritari,KI,3.0707,172.7902,81.34,76,75,19.84,broken clouds
76,Ust-Nera,RU,64.5667,143.2,-24.72,76,100,3.67,overcast clouds
77,Kahului,US,20.8947,-156.47,86.0,48,20,12.66,few clouds
78,Mezen',RU,65.8522,44.24,-17.18,86,0,2.42,clear sky
79,Marabu,MY,4.4148,114.0089,77.0,94,40,5.75,scattered clouds
80,Half Moon Bay,US,37.4636,-122.4286,66.2,88,1,16.11,haze
81,Zhigansk,RU,66.7697,123.3711,-42.68,79,4,2.82,clear sky
82,Sechura,PE,-5.5569,-80.8222,74.48,70,97,16.33,overcast clouds
83,Bāli Chak,IN,22.3667,87.55,53.58,51,0,5.53,clear sky
84,Sola,VU,-13.8833,167.55,89.6,79,40,8.28,scattered clouds
85,Airai,TL,-8.9266,125.4092,72.7,86,92,1.63,overcast clouds
86,Lata,PT,40.1629,-8.3327,48.99,89,13,3.24,few clouds
87,Yuncheng,CN,35.0231,110.9928,37.89,62,100,1.81,overcast clouds
88,Pevek,RU,69.7008,170.3133,-18.45,89,20,2.84,few clouds
89,Cayenne,GF,4.9333,-52.3333,77.0,100,90,2.3,overcast clouds
90,Cockburn Town,TC,21.4612,-71.1419,77.0,78,20,4.61,few clouds
91,Chokurdakh,RU,70.6333,147.9167,-13.52,89,100,8.5,overcast clouds
92,Atuona,PF,-9.8,-139.0333,77.4,77,55,12.68,broken clouds
93,Shimanovsk,RU,52.0,127.7,-16.47,86,0,2.21,clear sky
94,Waipawa,NZ,-41.4122,175.5153,72.0,88,75,9.22,mist
95,Necochea,AR,-38.5473,-58.7368,66.0,65,0,18.21,clear sky
96,Ust'-Koksa,RU,50.2696,85.6108,-14.69,77,0,0.69,clear sky
97,Cap Malheureux,MU,-19.9842,57.6142,77.0,84,0,3.0,clear sky
98,Kyshtovka,RU,56.555,76.6271,-18.38,84,7,6.35,clear sky
99,Kaliua,TZ,-5.0606,31.7936,65.5,91,100,0.89,light rain
100,Mataura,NZ,-46.1927,168.8643,73.0,64,4,3.0,clear sky
101,Talara,PE,-4.5772,-81.2719,71.89,83,94,13.29,overcast clouds
102,Kenai,US,60.5544,-151.2583,34.0,64,75,23.02,broken clouds
103,Dukat,RU,62.55,155.55,-38.34,79,85,4.07,overcast clouds
104,Hobyo,SO,5.3505,48.5268,75.83,78,69,18.63,broken clouds
105,Corbélia,BR,-24.7989,-53.3067,69.12,93,37,6.73,scattered clouds
106,Manakara,MG,-22.1333,48.0167,76.42,92,77,2.55,broken clouds
107,Narsaq,GL,60.9167,-46.05,18.25,91,100,6.17,overcast clouds
108,Mar del Plata,AR,-38.0023,-57.5575,69.01,68,0,17.27,clear sky
109,Aklavik,CA,68.2191,-135.0107,-4.0,77,89,2.3,overcast clouds
110,Esperance,AU,-33.8667,121.9,64.4,63,90,16.11,overcast clouds
111,Guerrero Negro,MX,27.9769,-114.0611,67.01,29,0,9.82,clear sky
112,Ushuaia,AR,-54.8,-68.3,50.0,66,40,11.5,scattered clouds
113,Camacha,PT,33.0833,-16.3333,55.4,62,40,10.36,scattered clouds
114,Liverpool,GB,53.4106,-2.9779,33.01,100,99,3.44,overcast clouds
115,Göksun,TR,38.021,36.4973,41.0,93,20,2.3,few clouds
116,Philadelphia,US,39.9523,-75.1638,43.0,65,75,2.89,broken clouds
117,Pampa,US,35.5362,-100.9599,41.0,21,75,9.22,broken clouds
118,Anuradhapura,LK,8.3565,80.4173,73.0,96,99,4.43,moderate rain
119,Shingū,JP,33.7333,135.9833,48.2,61,20,3.44,few clouds
120,Hanzhong,CN,33.0728,107.0303,39.45,66,0,0.96,clear sky
121,Salinópolis,BR,-0.6136,-47.3561,79.54,82,76,12.28,broken clouds
122,Cabadiangan,PH,9.7531,122.4739,81.81,78,48,8.39,scattered clouds
123,George Town,MY,5.4112,100.3354,78.8,88,20,2.3,few clouds
124,Ilulissat,GL,69.2167,-51.1,19.4,86,90,3.44,overcast clouds
125,South River,US,40.4465,-74.386,45.0,77,17,5.3,few clouds
126,Ijuí,BR,-28.3878,-53.9147,73.09,63,0,15.05,clear sky
127,Port Elizabeth,ZA,-33.918,25.5701,68.0,100,90,9.22,fog
128,Sitka,US,57.0531,-135.33,42.8,75,90,27.63,moderate rain
129,Kodinsk,RU,58.6881,99.1844,1.65,89,100,14.83,overcast clouds
130,Avarua,CK,-21.2078,-159.775,86.0,66,75,14.97,broken clouds
131,Galabovo,BG,42.139,25.8673,35.01,80,90,13.8,overcast clouds
132,Pochutla,MX,15.7432,-96.4661,80.6,65,75,8.05,broken clouds
133,Coyhaique,CL,-45.5752,-72.0662,66.2,45,0,5.75,clear sky
134,Buala,SB,-8.145,159.5921,86.07,68,95,7.87,light rain
135,Kamiiso,JP,41.8167,140.65,24.8,68,75,3.44,broken clouds
136,Baruun-Urt,MN,46.6806,113.2792,-16.24,83,0,8.08,clear sky
137,East London,ZA,-33.0153,27.9116,75.16,90,100,17.0,light rain
138,Vostok,RU,46.4856,135.8833,-0.87,85,100,2.1,overcast clouds
139,Guarujá,BR,-23.9931,-46.2564,81.0,26,79,14.56,broken clouds
140,Azare,NG,11.6765,10.1948,62.24,28,0,7.52,clear sky
141,Gravelbourg,CA,49.8834,-106.5512,24.8,74,100,26.46,overcast clouds
142,Honningsvåg,NO,70.9821,25.9704,37.47,79,100,18.12,overcast clouds
143,Pangody,RU,65.85,74.4859,-9.81,88,100,8.25,overcast clouds
144,Valréas,FR,44.3837,4.9908,45.0,87,0,5.75,clear sky
145,Aksarayskiy,RU,46.7924,48.0119,28.4,100,90,6.71,fog
146,Castro,BR,-24.7911,-50.0119,62.87,92,33,9.66,scattered clouds
147,Mandalgovi,MN,45.7625,106.2708,-10.07,81,0,8.48,clear sky
148,Mahébourg,MU,-20.4081,57.7,77.0,94,75,3.44,broken clouds
149,Kapaa,US,22.0752,-159.319,80.6,69,40,11.5,scattered clouds
150,Fort Oglethorpe,US,34.949,-85.2569,46.4,61,40,6.73,scattered clouds
151,Chapais,CA,49.7834,-74.8492,24.8,100,90,1.88,overcast clouds
152,Tigil',RU,57.8,158.6667,-4.0,90,32,0.78,scattered clouds
153,Auburn,US,47.3073,-122.2284,48.99,78,91,2.84,overcast clouds
154,Funadhoo,MV,6.15,73.2667,81.5,75,62,7.11,broken clouds
155,Simbahan,PH,6.3032,120.5836,81.82,81,100,10.56,overcast clouds
156,Ola,RU,59.5833,151.2833,-17.36,79,0,6.76,clear sky
157,Riohacha,CO,11.5444,-72.9072,77.63,71,59,10.2,broken clouds
158,Tessalit,ML,20.1986,1.0114,59.41,28,0,11.23,clear sky
159,Dudinka,RU,69.4058,86.1778,-41.39,79,0,4.25,clear sky
160,Saint-Médard-en-Jalles,FR,44.8969,-0.7214,48.2,87,90,8.05,overcast clouds
161,Teknāf,BD,20.8624,92.3058,60.67,73,69,5.99,broken clouds
162,Tibiri,NE,13.5627,7.0485,65.57,25,0,10.58,clear sky
163,Novosergiyevka,RU,52.0934,53.6528,18.73,93,100,15.7,overcast clouds
164,Itupeva,BR,-23.1531,-47.0578,71.6,88,90,6.51,overcast clouds
165,Gazi,GR,35.3253,25.0669,51.01,71,20,12.66,few clouds
166,Sayyan,YE,15.1718,44.3244,42.48,68,0,1.25,clear sky
167,Mengcheng,CN,33.2579,116.5655,44.91,52,76,13.8,broken clouds
168,Mosquera,CO,4.7059,-74.2302,59.0,82,20,4.61,few clouds
169,Cankuzo Province,BI,-3.1333,30.5833,58.23,100,99,2.37,light rain
170,Barrow,US,71.2906,-156.7887,-11.2,77,1,13.8,clear sky
171,Safi,MA,32.2994,-9.2372,52.41,73,7,13.65,clear sky
172,Kloulklubed,PW,7.0419,134.2556,86.0,74,75,11.5,broken clouds
173,Alice Springs,AU,-23.7,133.8833,89.6,22,0,19.57,clear sky
174,Victoria Point,AU,-27.5833,153.3,87.01,61,0,3.0,clear sky
175,Bengkulu,ID,-3.8004,102.2655,79.5,76,63,3.6,broken clouds
176,Carnarvon,AU,-24.8667,113.6333,78.8,94,42,14.97,scattered clouds
177,Krasnosel'kup,RU,65.7,82.4667,-18.18,85,100,6.64,overcast clouds
178,Berlevåg,NO,70.8578,29.0864,32.41,95,100,8.37,light snow
179,Hithadhoo,MV,-0.6,73.0833,81.55,79,41,17.54,scattered clouds
180,Constitución,CL,-35.3333,-72.4167,56.55,65,0,14.54,clear sky
181,Thompson,CA,55.7435,-97.8558,23.0,86,90,14.97,snow
182,Strezhevoy,RU,60.7333,77.5889,-11.2,77,0,8.95,clear sky
183,Isangel,VU,-19.55,169.2667,80.6,89,90,5.75,light rain
184,Lorengau,PG,-2.0226,147.2712,86.16,63,31,9.31,scattered clouds
185,Yar-Sale,RU,66.8333,70.8333,-8.61,86,99,6.96,overcast clouds
186,College,US,64.8569,-147.8028,10.99,84,40,4.61,scattered clouds
187,Agirish,RU,61.9247,63.0231,-3.12,91,100,8.86,overcast clouds
188,Itauguá,PY,-25.3833,-57.3333,87.8,70,20,3.44,few clouds
189,Klaksvík,FO,62.2266,-6.589,33.8,100,71,1.14,light rain
190,Barcelona,ES,41.3888,2.159,45.0,75,0,14.97,clear sky
191,Hervey Bay,AU,-25.2986,152.8535,82.4,47,40,5.75,scattered clouds
192,Merauke,ID,-8.4667,140.3333,82.85,78,100,10.42,heavy intensity rain
193,Rawson,AR,-43.3002,-65.1023,68.0,88,75,16.11,moderate rain
194,Baghlan,AF,36.1307,68.7083,40.86,62,24,0.56,few clouds
195,Aykhal,RU,66.0,111.5,-26.75,83,100,11.07,overcast clouds
196,Tsuruoka,JP,38.7217,139.8217,32.0,74,40,5.75,scattered clouds
197,Souillac,MU,-20.5167,57.5167,77.0,94,75,3.44,light rain
198,Río Gallegos,AR,-51.6226,-69.2181,62.6,51,40,11.5,scattered clouds
199,San Andrés,CO,12.5847,-81.7006,80.6,74,40,10.36,scattered clouds
200,Vila Franca do Campo,PT,37.7167,-25.4333,61.0,94,40,12.66,scattered clouds
201,Mangan,IN,27.5167,88.5333,53.82,42,0,2.51,clear sky
202,Roald,NO,62.5833,6.1333,30.2,64,90,10.36,overcast clouds
203,Rovenki,UA,48.0833,39.3776,24.03,98,100,6.29,light snow
204,Port Augusta,AU,-32.5,137.7667,70.0,59,90,19.57,overcast clouds
205,Ambilobe,MG,-13.2,49.05,75.42,94,89,0.96,moderate rain
206,Ponta do Sol,PT,32.6667,-17.1,57.2,58,40,11.5,scattered clouds
207,Ibrā’,OM,22.6906,58.5334,50.5,75,0,2.3,clear sky
208,Clyde River,CA,70.4692,-68.5914,-14.8,84,90,3.44,overcast clouds
209,Agüimes,ES,27.9054,-15.4461,62.6,63,75,21.85,broken clouds
210,Namatanai,PG,-3.6667,152.4333,85.33,65,100,3.44,overcast clouds
211,Meadow Lake,US,34.8014,-106.5436,51.8,11,75,20.71,broken clouds
212,Manggar,ID,-2.8833,108.2667,77.04,84,100,7.43,overcast clouds
213,Laas,IT,46.6166,10.7002,35.01,93,90,1.14,light snow
214,San Patricio,US,28.017,-97.5169,69.8,34,1,5.75,clear sky
215,Wawa,NG,9.9022,4.4192,72.72,20,0,6.6,clear sky
216,Posse,BR,-14.0931,-46.3694,70.11,87,100,7.29,light rain
217,Anta,IN,25.15,76.3,49.78,44,0,3.4,clear sky
218,Shar,KZ,49.5886,81.0453,-23.98,83,0,1.83,clear sky
219,Kalabo,ZM,-14.97,22.6814,67.41,95,100,4.65,light rain
220,Sorong,ID,-0.8833,131.25,83.68,75,100,7.18,overcast clouds
221,Sennoy,RU,52.1509,46.9631,16.84,97,100,5.14,overcast clouds
222,Tataouine,TN,32.9297,10.4518,46.4,46,0,6.91,clear sky
223,Chui,UY,-33.6971,-53.4616,65.46,70,0,11.25,clear sky
224,Tasiilaq,GL,65.6145,-37.6368,35.6,87,90,8.05,light snow
225,Longyearbyen,SJ,78.2186,15.6401,24.8,86,90,0.69,light intensity drizzle
226,Abu Samrah,SY,35.3029,37.1841,48.49,76,0,17.74,clear sky
227,Yangi Marg`ilon,UZ,40.4272,71.7189,28.4,80,0,4.61,clear sky
228,Margate,GB,51.3813,1.3862,39.99,62,81,5.01,broken clouds
229,Sisimiut,GL,66.9395,-53.6735,10.6,92,100,5.26,overcast clouds
230,Honiara,SB,-9.4333,159.95,87.28,61,100,5.53,overcast clouds
231,Kaitangata,NZ,-46.2817,169.8464,66.99,75,33,5.99,scattered clouds
232,Khatanga,RU,71.9667,102.5,-51.84,76,49,1.88,scattered clouds
233,Mabaruma,GY,8.2,-59.7833,71.6,94,100,3.22,overcast clouds
234,Caravelas,BR,-17.7125,-39.2481,76.15,86,0,4.94,clear sky
235,Fort Nelson,CA,58.8053,-122.7002,12.2,92,75,2.3,broken clouds
236,Batagay-Alyta,RU,67.8006,130.4114,-35.93,71,58,1.25,broken clouds
237,Puerto Ayora,EC,-0.7393,-90.3518,75.0,95,94,7.0,overcast clouds
238,Fortuna,US,40.5982,-124.1573,55.99,100,90,12.66,overcast clouds
239,Sumenep,ID,-7.0167,113.8667,82.13,77,100,7.16,overcast clouds
240,Grootfontein,NA,-19.5667,18.1167,65.68,89,100,12.17,overcast clouds
241,Yamada,JP,39.4667,141.95,33.28,81,0,1.68,clear sky
242,Esim,GH,4.8699,-2.2405,78.76,86,10,8.28,clear sky
243,Zirándaro de los Chávez,MX,18.45,-100.9833,84.78,34,100,1.83,overcast clouds
244,Bodden Town,KY,19.2833,-81.25,78.8,78,20,5.91,few clouds
245,Huaraz,PE,-9.5333,-77.5333,55.78,67,100,2.66,light rain
246,Tautira,PF,-17.7333,-149.15,86.0,66,75,6.91,broken clouds
247,Codrington,AU,-38.2667,141.9667,59.38,58,26,25.03,light rain
248,Mosetse,BW,-20.75,26.65,70.2,82,68,10.71,broken clouds
249,Porto-Novo,BJ,6.4965,2.6036,82.4,83,20,11.5,few clouds
250,Tibati,CM,6.4667,12.6333,61.12,31,76,3.76,broken clouds
251,Boyolangu,ID,-8.1181,111.8935,80.71,72,100,4.9,light rain
252,Kamenka,RU,51.3223,42.7678,13.5,97,98,6.4,overcast clouds
253,Orocué,CO,4.7912,-71.3354,78.98,66,95,6.67,overcast clouds
254,Provideniya,RU,64.3833,-173.3,10.4,79,90,8.95,overcast clouds
255,São Gabriel da Cachoeira,BR,-0.1303,-67.0892,73.49,97,35,1.12,scattered clouds
256,Kavaratti,IN,10.5669,72.642,82.13,74,96,10.27,overcast clouds
257,Cherskiy,RU,68.75,161.3,-23.46,83,100,4.43,overcast clouds
258,Cap-aux-Meules,CA,47.3821,-61.8597,30.2,93,100,4.88,light snow
259,Wenling,CN,28.3669,121.36,60.01,24,0,3.29,clear sky
260,Hualmay,PE,-11.0964,-77.6139,70.68,82,100,7.38,overcast clouds
261,Fuyu,CN,45.1833,124.8167,0.07,89,100,11.54,light snow
262,Leningradskiy,RU,69.3833,178.4167,-4.13,91,98,8.08,overcast clouds
263,Lake City,US,30.1897,-82.6393,46.4,66,1,5.75,clear sky
264,Vodnyy,RU,63.5046,53.4095,-1.35,92,100,5.39,light snow
265,Alihe,CN,50.5667,123.7167,-13.85,82,0,2.46,clear sky
266,Yablonovo,RU,50.8523,37.3574,24.8,93,90,6.71,mist
267,Domoni,KM,-12.2569,44.5319,78.75,80,100,6.46,overcast clouds
268,Conakry,GN,9.538,-13.6773,79.23,75,1,6.96,clear sky
269,Tiksi,RU,71.6872,128.8694,-27.35,85,100,3.47,overcast clouds
270,Nanortalik,GL,60.1432,-45.2371,22.23,92,42,4.61,scattered clouds
271,Okhotsk,RU,59.3833,143.3,-13.49,79,93,8.23,overcast clouds
272,Yellowknife,CA,62.456,-114.3525,5.0,92,75,4.61,broken clouds
273,Alofi,NU,-19.0595,-169.9187,87.8,66,75,10.36,broken clouds
274,The Valley,AI,18.217,-63.0578,78.8,78,75,8.05,broken clouds
275,Inhambane,MZ,-23.865,35.3833,78.94,86,2,4.94,clear sky
276,La Rioja,ES,42.25,-2.5,44.6,81,40,13.8,scattered clouds
277,Iqaluit,CA,63.7506,-68.5145,-16.01,76,20,2.3,few clouds
278,Kingman,US,35.1894,-114.053,62.6,17,1,21.85,clear sky
279,Iwaki,JP,37.05,140.8833,43.0,60,84,1.99,broken clouds
280,Xuanwu,CN,32.069,118.8138,52.0,87,0,2.24,clear sky
281,Crailsheim,DE,49.1344,10.0719,26.01,80,75,5.75,broken clouds
282,Caucayá,CO,-0.1934,-74.7819,70.34,97,77,0.51,broken clouds
283,Westport,US,41.1415,-73.3579,42.01,81,90,4.41,overcast clouds
284,Arlit,NE,18.7369,7.3853,67.14,25,2,7.7,clear sky
285,Hamilton,US,39.1834,-84.5333,45.0,65,75,8.05,broken clouds
286,Muli,MV,2.9167,73.5667,81.36,77,100,10.8,overcast clouds
287,Lüderitz,NA,-26.6481,15.1594,63.63,90,100,5.08,overcast clouds
288,Puerto del Rosario,ES,28.5004,-13.8627,62.6,55,90,16.11,overcast clouds
289,Upernavik,GL,72.7868,-56.1549,18.48,96,100,4.45,light snow
290,Mount Gambier,AU,-37.8333,140.7667,50.0,81,75,33.38,broken clouds
291,Kavieng,PG,-2.5744,150.7967,85.55,67,100,6.73,overcast clouds
292,Presidencia Roque Sáenz Peña,AR,-26.7852,-60.4388,86.0,67,2,3.0,clear sky
293,Evensk,RU,61.95,159.2333,-23.87,75,0,7.83,clear sky
294,Kadoma,JP,34.7333,135.5833,48.99,87,0,2.3,clear sky
295,Konstanz,DE,47.6603,9.1758,30.99,96,100,3.85,light snow
296,Chinhoyi,ZW,-17.3667,30.2,66.04,95,100,5.46,light rain
297,Qui Nhon,VN,13.7667,109.2333,65.71,84,100,8.32,overcast clouds
298,Trairi,BR,-3.2778,-39.2689,78.69,77,0,9.71,clear sky
299,Lodwar,KE,3.1191,35.5973,80.98,40,45,5.06,scattered clouds
300,Sōka,JP,35.8203,139.8044,46.0,56,100,6.96,overcast clouds
301,Baijiantan,CN,45.6333,85.1833,0.09,92,100,6.6,overcast clouds
302,Tazovsky,RU,67.4667,78.7,-16.02,89,100,11.07,light snow
303,Matamoros,MX,25.5333,-103.25,69.8,13,1,0.47,clear sky
304,Bluff,NZ,-46.6,168.3333,73.0,64,8,3.0,clear sky
305,Pisco,PE,-13.7,-76.2167,69.8,83,0,19.57,light rain
306,Oktyabr'skiy,RU,54.4815,53.471,12.81,95,100,11.1,light snow
307,Katete,UG,-0.7818,29.7544,65.21,70,100,1.86,overcast clouds
308,Saint-Paul,RE,-21.0096,55.2707,75.2,83,90,8.05,overcast clouds
309,Alice Town,BS,25.7167,-79.3,68.77,81,97,9.19,overcast clouds
310,Katherine,AU,-14.4667,132.2667,86.0,70,95,3.44,overcast clouds
311,Morshansk,RU,53.4435,41.8107,4.12,93,7,4.32,clear sky
312,Nālūt,LY,30.3333,10.85,43.77,58,0,4.41,clear sky
313,Boca do Acre,BR,-8.7522,-67.3978,73.96,96,100,1.99,light rain
314,Brigantine,US,39.4101,-74.3646,39.0,80,1,5.68,clear sky
315,Esqueda,MX,30.7167,-109.5833,53.31,37,0,3.11,clear sky
316,Korla,CN,41.7597,86.1469,17.08,83,0,9.64,clear sky
317,Manatí,PR,18.4275,-66.4921,77.0,85,100,6.22,overcast clouds
318,Taltal,CL,-25.4,-70.4833,63.88,74,3,3.98,clear sky
319,Bambous Virieux,MU,-20.3428,57.7575,77.0,94,75,3.44,broken clouds
320,Campbell River,CA,50.0163,-125.2446,44.01,70,75,9.22,broken clouds
321,Bonavista,CA,48.6499,-53.1147,32.0,86,100,7.67,overcast clouds
322,Shetpe,KZ,44.1667,52.1167,39.88,96,90,10.69,overcast clouds
323,Padang,ID,-0.9492,100.3543,79.61,68,48,3.51,scattered clouds
324,Broken Hill,AU,-31.95,141.4333,66.2,42,67,20.71,broken clouds
325,Saint-Philippe,RE,-21.3585,55.7679,77.0,78,40,4.61,scattered clouds
326,Sibolga,ID,1.7427,98.7792,78.17,72,99,2.75,overcast clouds
327,São José da Coroa Grande,BR,-8.8978,-35.1478,78.06,80,0,9.71,clear sky
328,Paraty,BR,-23.2178,-44.7131,74.3,84,14,1.21,light rain
329,Rochegda,RU,62.8,43.25,-6.14,91,98,3.85,overcast clouds
330,Khovd,MN,48.0056,91.6419,-3.95,72,0,5.7,clear sky
331,Ostrovnoy,RU,68.0531,39.5131,2.12,93,100,19.69,overcast clouds
332,Nemuro,JP,43.3236,145.575,23.0,58,40,8.05,scattered clouds
333,Luganville,VU,-15.5333,167.1667,87.6,69,82,7.83,light rain
334,Lavrentiya,RU,65.5833,-171.0,4.8,91,93,6.93,overcast clouds
335,Maningrida,AU,-12.0667,134.2667,91.45,59,61,4.07,broken clouds
336,Manaure,CO,11.7751,-72.4445,79.27,68,67,14.81,broken clouds
337,Te Anau,NZ,-45.4167,167.7167,75.31,38,0,4.09,clear sky
338,São Miguel do Araguaia,BR,-13.275,-50.1628,74.97,87,100,4.83,overcast clouds
339,Suntar,RU,62.1444,117.6319,-7.8,90,100,4.52,overcast clouds
340,Kiryat Gat,IL,31.61,34.7642,55.99,100,5,10.09,light rain
341,Ahipara,NZ,-35.1667,173.1667,73.0,57,0,8.68,clear sky
342,Ternate,ID,0.8,127.4,83.34,71,100,5.01,overcast clouds
343,Bhainsdehi,IN,21.6467,77.6325,58.69,43,0,1.86,clear sky
344,San Quintín,MX,30.4833,-115.95,65.46,43,0,6.46,clear sky
345,São Francisco de Paula,BR,-29.4481,-50.5836,62.01,85,29,3.0,scattered clouds
346,Mwense,ZM,-10.3845,28.698,66.13,94,100,4.34,overcast clouds
347,Vila Velha,BR,-20.3297,-40.2925,77.0,88,20,4.61,few clouds
348,Carutapera,BR,-1.195,-46.02,78.28,80,91,7.61,overcast clouds
349,Fare,PF,-16.7,-151.0167,81.25,76,0,15.28,clear sky
350,Acapulco de Juárez,MX,16.8634,-99.8901,80.6,78,90,8.05,overcast clouds
351,Tupik,RU,54.4253,119.9327,-26.27,79,0,1.63,clear sky
352,Itaituba,BR,-4.2761,-55.9836,80.6,83,75,1.43,broken clouds
353,Hong Kong,HK,22.2855,114.1577,63.0,59,0,7.85,clear sky
354,Lompoc,US,34.6391,-120.4579,71.6,56,1,8.05,clear sky
355,Escárcega,MX,18.6089,-90.7454,69.42,89,100,2.28,overcast clouds
356,Mahon,ES,39.8885,4.2658,44.6,87,0,6.91,clear sky
357,Alekseyevka,RU,50.6309,38.6903,14.09,95,36,2.19,scattered clouds
358,Mildura,AU,-34.2,142.15,66.99,42,75,13.8,broken clouds
359,Colares,PT,38.7992,-9.4469,55.0,93,76,14.88,broken clouds
360,Najrān,SA,17.4924,44.1277,53.6,35,0,1.07,clear sky
361,Voyvozh,RU,62.892,54.9635,1.72,94,100,7.47,light snow
362,North Platte,US,41.1239,-100.7654,35.6,41,75,23.02,broken clouds
363,Talnakh,RU,69.4865,88.3972,-41.84,78,16,0.51,few clouds
364,Christchurch,NZ,-43.5333,172.6333,73.0,64,75,9.22,broken clouds
365,Bereda,ES,43.2686,-7.5406,41.0,100,25,0.92,scattered clouds
366,Emmaus,US,40.5395,-75.4968,39.99,81,1,3.38,clear sky
367,Makkah al Mukarramah,SA,21.4267,39.8261,71.22,82,0,2.73,clear sky
368,Meulaboh,ID,4.1363,96.1285,76.8,80,98,3.42,moderate rain
369,Poum,NC,-20.2333,164.0167,79.36,87,100,13.76,light rain
370,Hambantota,LK,6.1241,81.1185,73.4,100,90,2.3,overcast clouds
371,Diffa,NE,13.3154,12.6113,64.96,32,19,10.49,few clouds
372,Acaraú,BR,-2.8856,-40.12,78.48,80,40,12.77,scattered clouds
373,Walvis Bay,NA,-22.9575,14.5053,71.01,77,100,2.3,overcast clouds
374,Ivanjica,RS,43.5803,20.2311,30.2,86,75,1.14,broken clouds
375,Rexburg,US,43.826,-111.7897,21.2,73,1,1.77,clear sky
376,Plátanos,GR,37.6667,21.6167,55.4,76,47,5.75,scattered clouds
377,Mehamn,NO,71.0357,27.8492,32.25,96,100,4.56,light snow
378,Waddān,LY,29.1614,16.139,48.51,61,0,3.09,clear sky
379,Marrakesh,MA,31.6315,-8.0083,41.0,81,0,4.61,clear sky
380,Motala,SE,58.5371,15.0365,15.8,79,2,6.91,clear sky
381,Encruzilhada do Sul,BR,-30.5439,-52.5219,61.14,91,10,8.7,clear sky
382,Victor Harbor,AU,-35.5667,138.6167,64.0,52,6,4.0,clear sky
383,Arman',RU,59.7,150.1667,-16.06,78,0,6.24,clear sky
384,Kurumkan,RU,54.3,110.3,-16.01,81,94,2.21,overcast clouds
385,Semey,KZ,50.4111,80.2275,-31.0,68,0,4.47,clear sky
386,Labuhan,ID,-6.8844,112.2051,79.9,80,100,10.63,light rain
387,Sawākin,SD,19.1059,37.3321,76.03,77,0,1.05,clear sky
388,Pundaguitan,PH,6.3711,126.1689,82.94,73,47,3.44,light rain
389,Rincon,US,32.296,-81.2354,48.2,66,1,5.75,clear sky
390,Logon,PH,11.3303,124.1146,79.57,78,0,8.79,clear sky
391,Northam,GB,51.0333,-4.2167,46.0,88,100,7.0,overcast clouds
392,Vilhena,BR,-12.7406,-60.1458,70.77,95,100,2.04,moderate rain
393,Cidreira,BR,-30.1811,-50.2056,71.89,75,11,18.57,few clouds
394,Onega,RU,63.9061,38.1404,-16.17,88,13,2.33,few clouds
395,Malinovskiy,RU,61.1953,62.8397,-4.54,91,100,8.68,overcast clouds
396,Stoughton,US,42.1251,-71.1023,37.99,93,90,3.44,light rain
397,Mulanje,MW,-16.0316,35.5,71.49,85,100,2.08,overcast clouds
398,Guangzhou,CN,23.1167,113.25,51.8,58,20,2.24,few clouds
399,Bosaso,SO,11.2842,49.1816,71.2,75,13,1.3,few clouds
400,Lensk,RU,60.7253,114.9278,-3.87,89,100,5.86,overcast clouds
401,Kizhinga,RU,51.8462,109.9097,-6.03,87,100,7.61,overcast clouds
402,Saint George,US,37.1041,-113.5841,60.8,16,1,6.91,clear sky
403,Sartell,US,45.6216,-94.2069,33.8,86,90,9.22,light snow
404,Petropavlovsk-Kamchatskiy,RU,53.0452,158.6483,5.0,61,34,4.47,scattered clouds
405,San Francisco,US,37.7749,-122.4194,66.2,55,40,8.95,scattered clouds
406,Vitim,RU,59.4511,112.5578,-1.05,89,100,11.1,light snow
407,Abalak,RU,58.1286,68.5944,-12.6,86,100,7.67,overcast clouds
408,Jining,CN,35.405,116.5814,41.0,1,100,1.99,overcast clouds
409,Olinda,BR,-8.0089,-34.8553,78.8,69,40,6.91,scattered clouds
410,Puerto Colombia,CO,10.9878,-74.9547,78.8,83,0,10.36,clear sky
411,Muros,ES,42.7762,-9.0603,50.0,93,57,5.1,broken clouds
412,Denpasar,ID,-8.65,115.2167,82.4,89,75,8.05,broken clouds
413,Vasai,IN,19.47,72.8,73.4,83,0,5.66,mist
414,Richards Bay,ZA,-28.783,32.0377,75.47,81,76,10.98,broken clouds
415,Russell,US,32.3502,-85.1999,51.8,66,1,5.75,clear sky
416,Falam,MM,22.9167,93.6833,48.63,92,95,0.43,overcast clouds
417,Broome,US,42.2506,-75.833,35.01,93,90,0.56,mist
418,Vila,PT,42.0304,-8.1588,43.0,90,4,1.01,clear sky
419,Esil,KZ,51.9556,66.4042,-0.44,85,78,16.17,broken clouds
420,Kamina,CD,-8.7386,24.9906,64.22,100,100,5.21,moderate rain
421,Gizo Government Station,SB,-8.103,156.8419,86.07,67,45,8.57,scattered clouds
422,Xunchang,CN,28.4543,104.715,45.19,75,83,1.07,broken clouds
423,Shahr-e Bābak,IR,30.1165,55.1186,41.92,51,100,5.41,overcast clouds
424,Forsytheganj,BY,52.6333,29.7333,8.37,94,99,7.81,overcast clouds
425,San Cristobal,VE,7.7669,-72.225,65.59,84,50,1.05,scattered clouds
426,Arrondissement de Castres,FR,43.5833,2.1667,46.99,93,90,19.57,overcast clouds
427,Yantal',RU,56.8471,105.2542,0.64,89,100,12.84,overcast clouds
428,Monroe,US,43.1501,-77.6831,37.99,93,90,3.24,overcast clouds
429,Joensuu,FI,62.6012,29.7632,-20.2,76,0,5.75,clear sky
430,Iracoubo,GF,5.4802,-53.2011,76.78,88,76,12.62,broken clouds
431,Vlašim,CZ,49.7063,14.8988,30.2,86,90,14.97,overcast clouds
432,Huarmey,PE,-10.0681,-78.1522,70.47,82,100,5.06,overcast clouds
433,Arraial do Cabo,BR,-22.9661,-42.0278,75.92,89,49,16.67,scattered clouds
434,Santiago del Estero,AR,-27.7951,-64.2615,82.0,77,0,4.0,clear sky
435,Nkoteng,CM,4.5167,12.0333,71.56,86,94,2.46,overcast clouds
436,Cabedelo,BR,-6.9811,-34.8339,78.8,83,20,8.05,few clouds
437,Stokmarknes,NO,68.5646,14.9108,37.99,88,100,7.0,light snow
438,Gampola,LK,7.1643,80.5696,69.01,88,100,2.77,overcast clouds
439,Şile,TR,41.1754,29.6133,41.0,81,75,3.44,broken clouds
440,Belyy Yar,RU,53.6039,91.3903,-0.4,65,100,13.42,overcast clouds
441,Palmer,US,42.1584,-72.3287,35.01,93,90,4.61,mist
442,Sabang,ID,5.8933,95.3214,80.82,81,58,15.23,broken clouds
443,Raymond,US,43.9015,-70.4703,32.0,86,1,3.04,clear sky
444,Ixtapa,MX,20.7,-105.2,71.6,83,20,5.75,few clouds
445,Nome,US,64.5011,-165.4064,17.6,79,90,8.05,overcast clouds
446,Namuac,PH,18.6109,121.1657,73.42,85,99,11.92,light rain
447,Praia da Vitória,PT,38.7333,-27.0667,62.6,88,75,27.0,broken clouds
448,Bilibino,RU,68.0546,166.4372,-22.67,83,100,0.65,overcast clouds
449,Sioux Lookout,CA,50.1001,-91.917,32.0,86,90,4.61,overcast clouds
450,Burns Lake,CA,54.2331,-125.7533,30.2,64,100,3.44,overcast clouds
451,Manzanillo,CU,20.3433,-77.1167,74.01,79,72,3.67,broken clouds
452,Luwingu,ZM,-10.2621,29.9271,62.8,96,100,8.3,light rain
453,Grindavik,IS,63.8424,-22.4338,37.4,87,75,17.27,light rain
454,Orimattila,FI,60.8049,25.7296,-7.6,77,0,9.22,clear sky
455,Jati,PK,24.3539,68.2671,58.17,35,1,7.36,clear sky
456,Coruripe,BR,-10.1256,-36.1756,78.53,78,38,14.25,scattered clouds
457,Jilib,SO,0.4883,42.7854,71.94,90,11,5.59,few clouds
458,Nakkila,FI,61.3667,22.0,-9.4,84,0,3.44,clear sky
459,Gazli,UZ,40.1333,63.45,39.92,67,0,13.18,clear sky
460,Tual,ID,-5.6667,132.75,83.71,76,100,12.97,overcast clouds
461,Bechem,GH,7.0903,-2.025,71.29,79,1,2.95,clear sky
462,Languyan,PH,5.2618,120.0807,82.09,81,99,7.34,overcast clouds
463,Jumla,NP,29.2747,82.1838,44.06,34,51,3.2,broken clouds
464,Golyshmanovo,RU,56.3979,68.3728,-14.28,86,100,9.08,overcast clouds
465,Poso,ID,-1.3959,120.7524,81.79,76,70,4.74,light rain
466,Pangoa,PE,-12.1167,-73.0,69.62,92,99,1.12,light rain
467,Olafsvik,IS,64.8945,-23.7142,40.28,71,30,22.97,scattered clouds
468,Waitati,NZ,-45.75,170.5667,71.92,60,37,7.0,scattered clouds
469,Dobre Miasto,PL,53.9867,20.3975,17.6,86,0,5.75,clear sky
470,Kutum,SD,14.2,24.6667,53.55,40,41,9.55,scattered clouds
471,Shimoda,JP,34.6667,138.95,50.0,71,75,18.41,broken clouds
472,Flinders,AU,-34.5833,150.8552,80.01,66,4,3.0,clear sky
473,Deputatsky,RU,69.3,139.9,-18.13,89,100,4.21,overcast clouds
474,Safranbolu,TR,41.2508,32.6942,27.93,94,100,0.98,overcast clouds
475,Kristiansund,NO,63.1115,7.732,24.8,86,90,6.91,overcast clouds
476,West Wendover,US,40.7391,-114.0733,42.8,39,1,5.75,clear sky
477,Pangnirtung,CA,66.1451,-65.7125,-7.55,69,0,2.21,clear sky
478,Kidal,ML,18.4411,1.4078,67.42,22,0,11.61,clear sky
479,Raudeberg,NO,61.9875,5.1352,32.0,87,58,5.73,broken clouds
480,Linhai,CN,28.85,121.1167,50.0,68,0,2.01,clear sky
481,Manado,ID,1.487,124.8455,78.8,94,75,2.3,moderate rain
482,Matagami,CA,49.7502,-77.6328,24.8,100,90,1.77,overcast clouds
483,Shache,CN,38.4167,77.2406,21.63,79,0,4.52,clear sky
484,Kasongo-Lunda,CD,-6.4667,16.8167,67.93,92,100,0.4,overcast clouds
485,Esmeraldas,BR,-19.7625,-44.3139,77.0,61,0,9.22,clear sky
486,Sabzawār,IR,36.2126,57.6819,41.45,47,100,1.97,overcast clouds
487,Domodossola,IT,46.1165,8.2931,44.6,53,75,4.61,broken clouds
488,Kirakira,SB,-10.4544,161.9205,85.59,64,51,8.05,broken clouds
489,Hammerfest,NO,70.6634,23.6821,33.8,93,75,8.05,light rain and snow
490,Hay River,CA,60.8156,-115.7999,3.2,85,17,1.14,few clouds
491,Iaçu,BR,-12.7672,-40.2117,72.05,85,100,6.33,overcast clouds
492,Fort Saint James,CA,54.4333,-124.25,24.28,93,100,7.34,overcast clouds
493,Tawang Town,IN,27.5833,91.8667,35.71,76,29,2.48,scattered clouds
494,Bambanglipuro,ID,-7.95,110.2833,80.33,69,100,3.67,heavy intensity rain
495,Turukhansk,RU,65.8167,87.9833,-41.24,80,18,3.15,few clouds
496,Vikhorevka,RU,56.1201,101.1636,3.2,78,75,17.9,snow
497,Rosa Zarate,EC,0.3333,-79.4667,74.41,92,100,2.17,light rain
498,Pangkalanbuun,ID,-2.6833,111.6167,74.28,95,100,1.66,light rain
499,Salalah,OM,17.0151,54.0924,73.4,14,0,8.05,clear sky
500,Vao,NC,-22.6667,167.4833,77.49,91,100,14.16,light rain
501,Kongolo,CD,-5.3833,27.0,67.24,95,100,2.8,light rain
502,Ekhabi,RU,53.5102,142.9671,-10.39,87,77,14.9,broken clouds
503,Oytal,KZ,42.9057,73.2697,25.93,82,0,4.29,clear sky
504,Miraflores,MX,19.2167,-98.8083,68.0,37,90,9.22,overcast clouds
505,Bulgan,MN,48.8125,103.5347,-9.76,84,80,3.06,broken clouds
506,Abu Kamal,SY,34.4506,40.9171,53.08,70,39,5.08,scattered clouds
507,Turaif,SA,31.6725,38.6637,42.8,100,0,11.5,clear sky
508,Chanal,MX,16.7167,-92.4,75.2,60,75,5.75,broken clouds
509,Kolokani,ML,13.5728,-8.0339,68.94,21,6,10.04,clear sky
510,Bria,CF,6.5423,21.9863,66.34,27,0,5.21,clear sky
511,Bubaque,GW,11.2833,-15.8333,78.17,64,24,8.86,few clouds
512,Katubao,PH,5.8892,124.8294,80.6,78,75,3.44,light rain
513,Savonlinna,FI,61.8699,28.88,-16.6,76,0,4.61,clear sky
514,Itoman,JP,26.1247,127.6694,68.0,77,75,8.05,broken clouds
515,Bella Union,UY,-30.2752,-57.6007,79.38,51,0,16.62,clear sky
516,Siddāpur,IN,14.3333,74.8833,71.44,69,67,7.31,broken clouds
517,Warwick,US,41.7001,-71.4162,41.0,81,90,5.75,overcast clouds
518,Henties Bay,NA,-22.116,14.2845,71.01,82,100,5.79,overcast clouds
519,Bilma,NE,18.6853,12.9164,62.2,30,0,6.53,clear sky
520,Flin Flon,CA,54.7682,-101.865,26.6,86,90,20.71,snow
521,Resistencia,AR,-27.4606,-58.9839,86.0,70,0,8.05,clear sky
522,Piaçabuçu,BR,-10.4056,-36.4344,78.84,79,20,13.38,few clouds
523,Sobradinho,BR,-12.8333,-39.1,72.81,93,37,3.65,scattered clouds
524,Balkanabat,TM,39.5108,54.3671,52.12,42,100,3.96,overcast clouds
525,Hirara,JP,24.8,125.2833,69.8,77,75,10.36,broken clouds
526,Togur,RU,58.3631,82.8265,-11.47,89,98,8.57,overcast clouds
527,Zayukovo,RU,43.6161,43.3339,37.4,100,90,4.47,fog
528,Bayan,CN,46.0833,127.4,-0.24,88,100,5.59,light snow
529,Bousso,TD,10.4795,16.7117,68.18,23,0,5.5,clear sky
530,Cachoeira,BR,-12.6183,-38.9558,73.74,88,88,3.76,overcast clouds
531,Departamento de Maldonado,UY,-34.6667,-54.9167,69.8,64,0,14.97,clear sky
532,Conceição do Araguaia,BR,-8.2578,-49.2647,76.3,87,100,3.18,light rain
533,Kendari,ID,-3.945,122.4989,82.87,83,100,2.64,moderate rain
534,Torbay,CA,47.6666,-52.7314,33.01,100,90,5.75,light snow
535,Chihuahua,MX,28.5,-106.0,66.2,13,1,10.36,clear sky
536,Lesozavodsk,RU,45.4794,133.4244,5.43,91,100,4.68,overcast clouds
537,Nantucket,US,41.2835,-70.0995,43.0,100,40,4.61,scattered clouds
538,Man,CI,7.4125,-7.5538,72.54,62,30,2.53,scattered clouds
539,Ýpsonas,CY,34.6884,32.9574,57.2,62,20,11.5,few clouds
540,Nexø,DK,55.0607,15.1306,32.0,86,90,3.44,overcast clouds
541,Butembo,CD,0.15,29.2833,61.02,69,100,1.81,overcast clouds
542,São Filipe,CV,14.8961,-24.4956,72.7,68,100,9.89,overcast clouds
543,Ketchikan,US,55.3422,-131.6461,42.8,87,90,21.85,mist
544,Batī,ET,11.1833,40.0167,54.52,55,8,0.76,clear sky
545,Springfield,US,37.2153,-93.2982,41.0,52,40,10.36,scattered clouds
546,Brownsville,US,25.9018,-97.4975,69.8,64,1,8.05,clear sky
547,Staicele,LV,57.8364,24.75,12.99,86,89,10.0,overcast clouds
548,Antofagasta,CL,-23.65,-70.4,64.4,72,75,11.5,broken clouds
549,Galesong,ID,-5.3166,119.3661,75.2,100,40,2.3,heavy intensity rain
550,Moyale,KE,3.5167,39.0584,70.32,36,100,8.01,overcast clouds
551,Ruiru,KE,-1.1606,36.9567,59.74,86,6,2.98,clear sky
552,Port Lincoln,AU,-34.7333,135.8667,62.01,52,40,21.39,scattered clouds
553,Brignoles,FR,43.4,6.0667,52.0,58,0,10.36,clear sky
554,Savannakhet,LA,16.566,104.751,59.0,88,40,2.3,mist
555,Antsohihy,MG,-14.8796,47.9875,76.03,91,100,1.77,overcast clouds
556,Catió,GW,11.2833,-15.25,70.11,77,0,5.23,clear sky
557,Rāvar,IR,31.2656,56.8055,45.19,44,97,1.66,overcast clouds
558,Ilhabela,BR,-23.7781,-45.3581,76.32,86,24,9.69,few clouds
559,Mīnāb,IR,27.1467,57.0801,46.4,71,0,2.3,clear sky
560,Anking,CN,30.5092,117.0506,50.09,51,0,0.47,clear sky
561,Vătava,RO,46.9667,24.7667,30.2,80,75,9.22,light snow
562,Piranhas,BR,-16.4269,-51.8222,75.78,77,100,1.52,light rain
563,Havøysund,NO,70.9963,24.6622,33.8,93,75,8.05,light rain and snow
564,Santa Lucía,ES,27.9117,-15.5407,62.6,63,75,21.85,broken clouds
565,Ifo,NG,6.8144,3.1958,77.25,85,0,1.39,clear sky
566,Melhus,NO,63.2855,10.2781,18.0,78,40,11.5,scattered clouds
567,Yeppoon,AU,-23.1333,150.7333,84.2,48,40,9.22,scattered clouds
568,Uray,RU,60.1247,64.7758,-5.6,87,100,9.95,overcast clouds
569,Brockville,CA,44.5834,-75.6826,34.0,86,90,3.8,mist
570,Vestmannaeyjar,IS,63.4427,-20.2734,44.04,75,99,17.76,overcast clouds
571,Kassala,SD,15.451,36.4,66.43,47,0,5.75,clear sky
572,Srīvardhan,IN,18.0333,73.0167,74.84,58,0,4.9,clear sky
573,Aloha,US,45.4943,-122.8671,52.0,66,20,2.35,few clouds
574,Kiruna,SE,67.8557,20.2251,14.0,85,75,4.61,broken clouds
575,Kayerkan,RU,69.3497,87.7602,-41.37,80,18,3.15,few clouds
576,Mackay,AU,-21.15,149.2,82.4,65,40,14.97,scattered clouds
577,Jaisinghnagar,IN,23.7,81.3833,43.23,58,0,2.46,clear sky
578,Tezu,IN,27.9167,96.1667,58.15,52,0,2.82,clear sky
579,Omboué,GA,-1.5746,9.2618,74.41,91,59,4.25,broken clouds
580,Nacala,MZ,-14.5428,40.6728,78.49,90,71,8.57,broken clouds
581,Jiancheng,CN,30.391,104.5491,39.0,65,0,7.0,clear sky
582,Gimli,CA,50.6336,-96.9907,30.2,86,100,10.36,light snow
583,Yayva,RU,59.3303,57.2641,6.01,73,100,5.01,light snow
584,Marystown,CA,47.1666,-55.1483,31.5,94,100,0.54,overcast clouds
585,Erdaojiang,CN,41.7764,126.0319,18.32,95,100,2.04,snow
586,Monte Patria,CL,-30.6919,-70.9467,62.42,46,0,1.39,clear sky
587,Ust-Maya,RU,60.4167,134.5333,-46.32,77,75,1.66,broken clouds
588,Masakin,TN,35.7292,10.5808,55.4,71,98,8.05,overcast clouds
589,Visnes,NO,59.3556,5.2242,23.0,86,20,6.91,few clouds
590,Cherdyn',RU,60.403,56.4787,12.16,96,100,8.25,snow
591,Gallup,US,35.5281,-108.7426,42.8,22,1,10.36,clear sky
592,Izhmorskiy,RU,56.194,86.6414,-15.45,87,100,16.26,overcast clouds
593,Vestmanna,FO,62.1564,-7.1664,33.8,100,31,1.14,scattered clouds
594,Porosozero,RU,62.7191,32.727,-15.66,89,100,5.68,overcast clouds
595,Port Shepstone,ZA,-30.7414,30.455,74.89,87,6,13.51,clear sky
596,Tutóia,BR,-2.7619,-42.2744,80.08,80,18,14.36,few clouds
597,Mullingar,IE,53.5333,-7.35,36.0,95,100,2.26,overcast clouds
598,Kozhva,RU,65.1073,57.0459,-9.98,88,100,3.89,overcast clouds
599,Plateros,MX,23.2167,-102.85,66.2,8,75,5.75,broken clouds
600,Masallātah,LY,32.6167,14.0,51.44,70,0,11.45,clear sky
601,Rantepao,ID,-2.9701,119.8978,75.22,82,100,1.95,moderate rain
602,North Bend,US,43.4065,-124.2243,60.8,72,90,8.05,overcast clouds
603,Mago,RU,53.2514,140.1822,-15.36,85,0,0.76,clear sky
604,Lamu,KE,-2.2717,40.902,77.0,88,1,8.28,mist
605,Faya,SA,18.3851,42.4509,46.4,87,0,3.22,clear sky
606,Murshidābād,IN,24.1833,88.2667,51.04,55,0,3.65,clear sky
607,Denizli Province,TR,37.8402,29.0698,30.2,100,40,2.3,mist
608,Lamar,US,33.6668,-95.5836,50.0,37,1,13.8,clear sky
609,San Angelo,US,31.4638,-100.437,51.8,32,1,11.5,clear sky
610,Pegnitz,DE,49.7564,11.545,28.4,86,75,2.3,broken clouds
611,Maseru,LS,-29.3167,27.4833,63.61,85,63,7.25,moderate rain
612,Fort Carson,US,38.7375,-104.7889,28.0,39,1,13.8,clear sky
613,Vargem Grande,BR,-3.5431,-43.9158,74.55,91,80,3.78,light rain
614,Harper,LR,4.375,-7.7169,78.53,85,56,7.38,broken clouds
615,Cabo San Lucas,MX,22.8909,-109.9124,75.2,25,1,3.44,clear sky
616,Eufaula,US,31.8913,-85.1455,51.01,71,1,7.83,clear sky
617,Anito,PH,12.4497,125.2886,81.3,76,100,7.07,overcast clouds
618,Øksfjord,NO,70.2396,22.3479,33.8,86,75,3.44,light snow
619,Kumluca,TR,36.3703,30.2869,52.05,45,0,3.11,clear sky
620,Salekhard,RU,66.53,66.6019,-5.33,83,100,7.56,overcast clouds
621,Kantemirovka,RU,49.7089,39.8592,13.42,95,97,4.43,overcast clouds
622,Banjar,ID,-8.19,114.9675,82.4,89,75,8.05,broken clouds
623,Kieta,PG,-6.2167,155.6333,86.09,61,100,2.84,overcast clouds
624,Aleksandrov Gay,RU,50.147,48.5704,26.91,98,100,11.41,overcast clouds
625,Daniel Flores,CR,9.3355,-83.6694,70.29,82,58,1.83,broken clouds
626,Chesma,RU,53.8111,60.6533,-2.96,92,100,7.76,overcast clouds
627,Saint Stephen,GB,50.3333,-4.9,44.6,87,20,11.5,few clouds
628,Beringovskiy,RU,63.05,179.3167,-15.93,88,28,9.33,scattered clouds
629,Yulara,AU,-25.2406,130.9889,86.0,25,98,20.71,overcast clouds
630,Minsk,BY,53.9,27.5667,10.4,92,90,11.18,light snow
631,Mogadishu,SO,2.0371,45.3438,76.35,84,75,17.0,broken clouds
632,Atasū,KZ,48.6814,71.6433,-3.17,83,0,12.88,clear sky
633,Am Timan,TD,11.0297,20.2827,67.06,24,0,6.35,clear sky
634,Saint-Pierre,RE,-21.3393,55.4781,77.0,78,40,4.61,scattered clouds
635,Samaná,DO,19.2056,-69.3369,74.71,88,60,4.83,broken clouds
636,Malindi,KE,-3.2175,40.1191,75.88,86,94,6.69,overcast clouds
637,Mayo,US,38.8876,-76.5119,39.2,81,1,3.65,clear sky
638,Arrondissement de Meaux,FR,48.9167,3.0,36.0,92,100,8.01,overcast clouds
639,‘Āhuimanu,US,21.4447,-157.8378,82.4,73,40,9.22,scattered clouds
640,Xishan,CN,27.6667,113.5,35.6,93,0,0.4,fog
641,Tripoli,LY,32.8752,13.1875,56.25,58,0,14.76,clear sky
642,Takayama,JP,36.1333,137.25,44.01,93,20,1.14,few clouds
643,Bidor,MY,4.1139,101.2884,73.4,94,20,6.91,few clouds
644,Nyaunglebin,MM,17.95,96.7333,62.53,73,0,3.67,clear sky
645,Halifax,CA,44.6453,-63.5724,37.4,93,100,4.61,overcast clouds
646,Bozoum,CF,6.3193,16.3799,66.72,25,77,2.86,broken clouds
647,Barreirinhas,BR,-2.7469,-42.8264,78.13,81,91,8.88,overcast clouds
648,Shitanjing,CN,39.2342,106.3439,17.38,75,100,12.57,overcast clouds
649,Moerai,PF,-22.4333,-151.3333,79.45,71,100,11.48,overcast clouds
650,Maridi,SS,4.9158,29.4742,73.99,26,100,3.24,overcast clouds
651,Garchitorena,PH,13.8804,123.6946,79.43,87,43,12.01,scattered clouds
652,Mbumi,TZ,-7.9058,39.2105,73.24,94,53,2.37,broken clouds
653,Sørland,NO,67.667,12.6934,39.15,71,95,9.6,overcast clouds
654,San Policarpo,PH,12.1791,125.5072,80.51,81,100,7.99,overcast clouds
655,Sept-Îles,CA,50.2001,-66.3821,28.4,86,5,1.14,clear sky
656,Ashland,US,40.8167,-82.2665,41.0,65,1,10.36,clear sky
657,Khasan,RU,42.4308,130.6434,24.37,98,100,3.49,light snow
658,Mokhotlong,LS,-29.2894,29.0675,58.71,81,100,2.1,light rain
659,Novy Urengoy,RU,66.0833,76.6333,-4.23,92,100,7.4,overcast clouds
660,Svetlaya,RU,46.5389,138.3297,8.19,77,62,5.48,broken clouds
661,Redmond,US,47.674,-122.1215,48.99,66,61,3.02,broken clouds
662,Malanje,AO,-9.5402,16.341,60.33,97,95,7.38,overcast clouds
663,Beloha,MG,-25.1667,45.05,75.0,91,58,8.32,broken clouds
664,Vallenar,CL,-28.5708,-70.7581,66.65,54,0,2.06,clear sky
665,Verkhnedneprovskiy,RU,54.9813,33.3457,-5.96,91,100,3.89,overcast clouds
666,Ossora,RU,59.2353,163.0719,-10.64,86,26,4.88,scattered clouds
667,Lengshuitan,CN,26.4111,111.5956,55.0,39,0,0.43,clear sky
668,Grand Forks,US,47.9417,-97.4337,32.0,93,90,19.57,light snow
669,Anloga,GH,5.7947,0.8973,80.6,89,40,6.91,scattered clouds
670,Mahibadhoo,MV,3.7833,72.9667,80.82,75,98,10.49,overcast clouds
671,Cosío,MX,22.35,-102.3,55.27,31,100,6.2,overcast clouds
672,Curup,ID,-3.4667,102.5333,72.55,84,69,2.13,broken clouds
673,Glamoč,BA,44.0458,16.8486,28.0,52,51,5.99,broken clouds
674,Rio Negro,BR,-26.1058,-49.7975,61.0,97,100,3.0,overcast clouds
675,Mehrān,IR,33.1222,46.1646,50.0,14,90,11.5,overcast clouds
676,Östersund,SE,63.1792,14.6357,5.0,92,92,3.44,overcast clouds
677,Tommot,RU,58.9564,126.2925,-18.89,85,99,0.96,overcast clouds
678,Pinotepa Nacional,MX,16.3167,-98.0167,74.35,85,100,0.67,overcast clouds
679,Ayagoz,KZ,47.9714,80.4392,-12.69,82,0,12.37,clear sky
680,Gazojak,TM,41.1875,61.4036,40.95,65,0,14.97,clear sky
681,Kumul,CN,42.8,93.45,12.92,83,0,8.63,clear sky
682,Lahat,ID,-3.8,103.5333,76.15,86,97,1.25,overcast clouds
683,Ucluelet,CA,48.9329,-125.5528,54.0,43,90,14.97,overcast clouds
684,Mount Isa,AU,-20.7333,139.5,95.0,24,18,9.22,few clouds
685,Naze,JP,28.3667,129.4833,66.2,63,20,13.8,few clouds
686,Coquimbo,CL,-29.9533,-71.3436,60.8,77,20,11.5,few clouds
687,Lagoa,PT,39.05,-27.9833,62.04,87,100,29.48,overcast clouds
688,Avera,US,33.194,-82.5271,46.4,66,1,5.75,clear sky
689,Palmerston,AU,-12.486,130.9833,84.0,83,75,4.61,broken clouds
690,Tromsø,NO,69.6496,18.957,33.8,93,75,6.91,snow
691,Laguna,US,38.421,-121.4238,57.2,67,1,3.44,clear sky
692,Trud,BG,42.2333,24.7333,35.01,64,75,23.02,broken clouds
693,Bemidji,US,47.4736,-94.8803,34.0,100,90,8.05,light snow
694,Biak,ID,-0.9131,122.8766,81.84,74,100,0.74,light rain
695,Csákvár,HU,47.3918,18.465,32.0,62,0,8.01,clear sky
696,Nisibis,TR,37.0778,41.2178,46.4,87,90,4.61,overcast clouds
697,Bonthe,SL,7.5264,-12.505,78.37,88,1,6.89,clear sky
698,Arrondissement de Saintes,FR,45.6667,-0.75,42.8,93,0,3.44,clear sky
699,Tilichiki,RU,60.4667,166.1,-22.61,86,0,7.83,clear sky
700,Canalete,CO,8.6761,-76.2042,75.6,87,100,7.76,overcast clouds
701,Tacuarembó,UY,-31.7333,-55.9833,69.31,71,0,13.38,clear sky
702,General Higinio Morínigo,PY,-25.95,-55.9167,73.96,89,0,3.09,clear sky
703,Bitung,ID,1.4451,125.1824,78.8,94,75,2.3,broken clouds
704,Lázaro Cárdenas,MX,17.9583,-102.2,76.55,73,100,4.54,overcast clouds
705,Iraray,PH,8.9936,118.0511,81.68,76,15,3.04,few clouds
706,Yumen,CN,40.2833,97.2,17.56,88,86,12.06,overcast clouds
707,Zapolyarnyy,RU,69.4154,30.8136,10.4,92,90,9.22,overcast clouds
